[{"Link":"https://www.kampas.lt/skelbimai/butas-siluteje-silutes-m-gluosniu-g-sumazinta-kaina-parduodamas-3-iu-kambariu-butas-612736","Area":58.0,"PricePerSqM":567.0,"NumberOfRooms":3,"Floor":"3/5","Price":33000.0,"MapLink":"https://maps.google.com/maps?q=55.3515733,21.4622989","Municipality":"Šilutės r. sav.","Microdistrict":"Šilutė","Street":"Gluosnių g.","BuildYear":1975,"Latitude":55.3515733,"Longitude":21.4622989},{"Link":"https://www.kampas.lt/skelbimai/butas-klaipedoje-zvejybos-uostas-naikupes-g-3-iu-kambariu-butas-puikus-isplanavimas-612735","Area":75.0,"PricePerSqM":799.0,"NumberOfRooms":3,"Floor":"3/3","Price":60000.0,"MapLink":"https://maps.google.com/maps?q=55.678938,21.1558818","Municipality":"Klaipėdos m. sav.","Microdistrict":"Klaipėda","Street":"Nidos g.","BuildYear":1959,"Latitude":55.678938,"Longitude":21.1558818},{"Link":"https://www.kampas.lt/skelbimai/butas-klaipedoje-zvejybos-uostas-naikupes-g-savininkeparduodu-tvarkinga-2-kambariu-521585","Area":48.0,"PricePerSqM":1083.0,"NumberOfRooms":2,"Floor":"6/9","Price":52000.0,"MapLink":"https://maps.google.com/maps?q=55.6778278,21.1543093","Municipality":"Klaipėdos m. sav.","Microdistrict":"Klaipėda","Street":"Naikupės g.","BuildYear":1981,"Latitude":55.6778278,"Longitude":21.1543093},{"Link":"https://www.kampas.lt/skelbimai/butas-vilniuje-snipiskes-konstitucijos-pr-parduodamas-pilnai-irengtas-erdvaus-612734","Area":57.29,"PricePerSqM":2417.0,"NumberOfRooms":2,"Floor":"5/11","Price":138000.0,"MapLink":"https://maps.google.com/maps?q=54.6977423,25.2743385","Municipality":"Vilniaus m. sav.","Microdistrict":"Vilnius","Street":"Konstitucijos pr.","BuildYear":2007,"Latitude":54.6977423,"Longitude":25.2743385},{"Link":"https://www.kampas.lt/skelbimai/butas-panevezyje-pilenai-nendres-g-parduodamas-3-k-butas-renovuotame-name-nendres-g-612682","Area":63.0,"PricePerSqM":714.0,"NumberOfRooms":3,"Floor":"4/5","Price":45000.0,"MapLink":"https://maps.google.com/maps?q=55.7172126,24.3525021","Municipality":"Panevėžio m. sav.","Microdistrict":"Panevėžys","Street":"Nendrės g.","BuildYear":1995,"Latitude":55.7172126,"Longitude":24.3525021},{"Link":"https://www.kampas.lt/skelbimai/butas-klaipedoje-vetrunge-kauno-g-parduodamas-2ju-nepereinamu-kambariu-butas-612732","Area":47.0,"PricePerSqM":1127.0,"NumberOfRooms":2,"Floor":"4/5","Price":53000.0,"MapLink":"https://maps.google.com/maps?q=55.6968776,21.1595438","Municipality":"Klaipėdos m. sav.","Microdistrict":"Klaipėda","Street":"Kauno g.","BuildYear":1967,"Latitude":55.6968776,"Longitude":21.1595438},{"Link":"https://www.kampas.lt/skelbimai/butas-klaipedoje-laukininkai-laukininku-g-parduodamas-puikiai-iandscaronplanuotas-580518","Area":55.0,"PricePerSqM":1036.0,"NumberOfRooms":2,"Floor":"3/9","Price":57000.0,"MapLink":"https://maps.google.com/maps?q=55.6642773,21.1911258","Municipality":"Klaipėdos m. sav.","Microdistrict":"Klaipėda","Street":"Laukininkų g.","BuildYear":1988,"Latitude":55.6642773,"Longitude":21.1911258},{"Link":"https://www.kampas.lt/skelbimai/butas-siauliuose-gytariai-k-korsako-g-parduodamas-2-ju-kambariu-butas-k-korsakog-612731","Area":50.0,"PricePerSqM":860.0,"NumberOfRooms":2,"Floor":"2/5","Price":43000.0,"MapLink":"https://maps.google.com/maps?q=55.9101891,23.2473287","Municipality":"Šiaulių m. sav.","Microdistrict":"Šiauliai","Street":"K. Korsako g.","BuildYear":1990,"Latitude":55.9101891,"Longitude":23.2473287},{"Link":"https://www.kampas.lt/skelbimai/butas-vilniuje-antakalnis-nemencines-pl-parduodamas-erdvus-tvarkingas-ir-sviesus-3-612721","Area":84.0,"PricePerSqM":1666.0,"NumberOfRooms":3,"Floor":"5/6","Price":140000.0,"MapLink":"https://maps.google.com/maps?q=54.760443,25.3672514","Municipality":"Vilniaus m. sav.","Microdistrict":"Vilnius","Street":"Rudausių Sodų 7-oji g.","BuildYear":1995,"Latitude":54.760443,"Longitude":25.3672514},{"Link":"https://www.kampas.lt/skelbimai/butas-siauliuose-centras-ausros-al-puikus-pasiulymas-parduodamas-2-k-butas-centre-po-611822","Area":61.0,"PricePerSqM":1426.0,"NumberOfRooms":2,"Floor":"1/3","Price":87000.0,"MapLink":"https://maps.google.com/maps?q=55.9369917,23.3104825","Municipality":"Šiaulių m. sav.","Microdistrict":"Šiauliai","Street":"Aušros al.","BuildYear":1938,"Latitude":55.9369917,"Longitude":23.3104825},{"Link":"https://www.kampas.lt/skelbimai/butas-vilniuje-naujoji-vilnia-pramones-g-parduodamos-vieno-kambario-patalpos-daline-612730","Area":21.0,"PricePerSqM":800.0,"NumberOfRooms":1,"Floor":"5/5","Price":17000.0,"MapLink":"https://maps.google.com/maps?q=54.6944644,25.4451264","Municipality":"Vilniaus m. sav.","Microdistrict":"Vilnius","Street":"103","BuildYear":1963,"Latitude":54.6944644,"Longitude":25.4451264},{"Link":"https://www.kampas.lt/skelbimai/butas-siauliuose-centras-vilniaus-g-parduodamas-1-kambario-butas-pesciuju-bulvare-612728","Area":27.0,"PricePerSqM":1000.0,"NumberOfRooms":1,"Floor":"3/3","Price":27000.0,"MapLink":"https://maps.google.com/maps?q=55.9355158,23.309123","Municipality":"Šiaulių m. sav.","Microdistrict":"Šiauliai","Street":"Vilniaus g.","BuildYear":1960,"Latitude":55.9355158,"Longitude":23.309123},{"Link":"https://www.kampas.lt/skelbimai/butas-siauliuose-centras-vilniaus-g-parduodamas-38-kv-m-ploto-loftas-pesciuju-612727","Area":38.0,"PricePerSqM":1000.0,"NumberOfRooms":2,"Floor":"2/3","Price":38000.0,"MapLink":"https://maps.google.com/maps?q=55.9355158,23.309123","Municipality":"Šiaulių m. sav.","Microdistrict":"Šiauliai","Street":"Vilniaus g.","BuildYear":1960,"Latitude":55.9355158,"Longitude":23.309123},{"Link":"https://www.kampas.lt/skelbimai/butas-vilniuje-senamiestis-kauno-g-parduodamas-jaukus-ir-tvarkingas-1-kambario-butas-612244","Area":29.0,"PricePerSqM":1637.0,"NumberOfRooms":1,"Floor":"5/5","Price":48000.0,"MapLink":"https://maps.google.com/maps?q=54.6719316,25.2694078","Municipality":"Vilniaus m. sav.","Microdistrict":"Vilnius","Street":"Kauno g.","BuildYear":1940,"Latitude":54.6719316,"Longitude":25.2694078},{"Link":"https://www.kampas.lt/skelbimai/butas-vilniuje-pasilaiciai-budiniskiu-g-objekto-id-11710-parduodamas-visiskai-naujai-612715","Area":26.03,"PricePerSqM":2785.0,"NumberOfRooms":1,"Floor":"1/5","Price":72000.0,"MapLink":"https://maps.google.com/maps?q=54.7309228,25.2113419","Municipality":"Vilniaus m. sav.","Microdistrict":"Vilnius","Street":"Budiniškių g.","BuildYear":0,"Latitude":54.7309228,"Longitude":25.2113419},{"Link":"https://www.kampas.lt/skelbimai/butas-klaipedoje-zvejybos-uostas-minijos-g-parduodamas-perplanuotas-3ju-kambariu-612713","Area":64.0,"PricePerSqM":903.0,"NumberOfRooms":3,"Floor":"4/5","Price":58000.0,"MapLink":"https://maps.google.com/maps?q=55.6784931,21.1523294","Municipality":"Klaipėdos m. sav.","Microdistrict":"Klaipėda","Street":"Minijos g.","BuildYear":1976,"Latitude":55.6784931,"Longitude":21.1523294},{"Link":"https://www.kampas.lt/skelbimai/butas-klaipedoje-vingis-silutes-pl-prie-akropolio-centrineje-miesto-dalyje-612712","Area":70.0,"PricePerSqM":1114.0,"NumberOfRooms":3,"Floor":"2/5","Price":78000.0,"MapLink":"https://maps.google.com/maps?q=55.6848133,21.1840305","Municipality":"Klaipėdos m. sav.","Microdistrict":"Klaipėda","Street":"Šilutės pl.","BuildYear":1969,"Latitude":55.6848133,"Longitude":21.1840305},{"Link":"https://www.kampas.lt/skelbimai/butas-trakuose-naujojo-lentvario-k-naujajame-lentvaryje-parduodamas-kokybiskai-612709","Area":71.0,"PricePerSqM":1676.0,"NumberOfRooms":3,"Floor":"3/3","Price":119000.0,"MapLink":"https://maps.google.com/maps?q=54.659489,25.062783","Municipality":"Trakų r. sav.","Microdistrict":"Naujasis Lentvaris","Street":"Senoji g.","BuildYear":2017,"Latitude":54.659489,"Longitude":25.062783}]